{
   "type": "FeatureCollection",
   "features": [
  {
    "type": "Feature",
    "geometry": {
       "type": "Point",
       "coordinates":  [-73.815817,42.713696]
    },
    "properties": {
    "title":"New York State Department of Transportation",
    "description":"Albany, NY 12232",
    "marker-color":"#d1441e",
    "status":"Official OTP Deployment",
	"url":"https://www.511ny.org/"
    }
  },
  {
    "type": "Feature",
    "geometry": {
       "type": "Point",
       "coordinates":  [-77.074271,38.895348]
    },
    "properties": {
    "title":"Arlington County Commuter Services",
    "description":"Arlington, VA 22209",
    "marker-color":"#d1441e",
    "status":"Official OTP Deployment",
	"url":"http://www.carfreeatoz.com/"
    }
  },
  {
    "type": "Feature",
    "geometry": {
       "type": "Point",
       "coordinates":  [-122.677220,45.510126]
    },
    "properties": {
    "title":"TriMet",
    "description":"Portland, OR 97201",
    "marker-color":"#d1441e",
    "status":"Official OTP Deployment",
	"url":"http://ride.trimet.org/"
    }
  },
  {
    "type": "Feature",
    "geometry": {
       "type": "Point",
       "coordinates":  [24.938372,60.169896]
    },
    "properties": {
    "title":"Helsinki Regional Transport Authority",
    "description":"Helsinki, Finland",
    "marker-color":"#d1441e",
    "status":"Official OTP Deployment",
	"url":"https://digitransit.fi/en/"
    }
  },
  {
    "type": "Feature",
    "geometry": {
       "type": "Point",
       "coordinates":  [-0.376748,39.470547]
    },
    "properties": {
    "title":"Municipal Transport Company of Valencia S.A.U",
    "description":"Valencia, Spain",
    "marker-color":"#d1441e",
    "status":"Official OTP Deployment",
	"url":"http://www.emtvalencia.es/geoportal/?lang=en_otp"
    }
  },
  {
    "type": "Feature",
    "geometry": {
       "type": "Point",
       "coordinates":  [5.739311,45.188791]
    },
    "properties": {
    "title":"SMTC, Grenoble Alpes métropole, l'État Français",
    "description":"Grenoble, France",
    "marker-color":"#d1441e",
    "status":"Official OTP Deployment",
	"url":"http://www.metromobilite.fr/"
    }
  },
  {
    "type": "Feature",
    "geometry": {
       "type": "Point",
       "coordinates":  [-1.676083,48.116934]
    },
    "properties": {
    "title":"Service des Transports en Commun de l'Agglomération Rennaise (STAR)",
    "description":"Rennes, France",
    "marker-color":"#d1441e",
    "status":"Official OTP Deployment",
	"url":"https://itunes.apple.com/us/app/starbusmetro/id899970416?mt=8"
    }
  },
  {
    "type": "Feature",
    "geometry": {
       "type": "Point",
       "coordinates":  [16.925029,52.406229]
    },
    "properties": {
    "title":"Urban Transport Authority of Poznań (ZTM Poznan)",
    "description":"Poznań, Poland",
    "marker-color":"#d1441e",
    "status":"Official OTP Deployment",
	"url":"http://poznan.iplaner.pl/"
    }
  },
  {
    "type": "Feature",
    "geometry": {
       "type": "Point",
       "coordinates":  [22.569262,51.245390]
    },
    "properties": {
    "title":"ZTM Lublin",
    "description":"Lublin, Poland",
    "marker-color":"#d1441e",
    "status":"Official OTP Deployment",
	"url":"https://www.ztm.lublin.eu/"
    }
  },
  {
    "type": "Feature",
    "geometry": {
       "type": "Point",
       "coordinates":  [138.600168,-34.928734]
    },
    "properties": {
    "title":"Adelaide Metro",
    "description":"Adelaide, Australia",
    "marker-color":"#d1441e",
    "status":"Official OTP Deployment",
	"url":"http://jp.adelaidemetro.com.au/opentripplanner-webapp/"
    }
  },
  {
    "type": "Feature",
    "geometry": {
       "type": "Point",
       "coordinates":  [11.121557,46.074383]
    },
    "properties": {
    "title":"ViaggiaTrento and ViaggiaRovereto",
    "description":"Trento Province, Italy",
    "marker-color":"#d1441e",
    "status":"Official OTP Deployment",
	"url":"https://play.google.com/store/apps/details?id=eu.trentorise.smartcampus.viaggiatrento"
    }
  },
  {
    "type": "Feature",
    "geometry": {
       "type": "Point",
       "coordinates":  [11.150519,46.070090]
    },
    "properties": {
    "title":"Smart Campus Project",
    "description":"TrentoRise, UNITN, and FBK, Italy",
    "marker-color":"#d1441e",
    "status":"Official OTP Deployment",
	"url":"http://www.smartcampuslab.it/"
    }
  },
  {
    "type": "Feature",
    "geometry": {
       "type": "Point",
       "coordinates":  [10.752839,59.912719]
    },
    "properties": {
    "title":"Ruter",
    "description":"Oslo, Norway",
    "marker-color":"#d1441e",
    "status":"Official OTP Deployment",
	"url":"http://ruter.no/reiseplanlegger/"
    }
  },
  {
    "type": "Feature",
    "geometry": {
       "type": "Point",
       "coordinates":  [-82.453519,27.950110]
    },
    "properties": {
    "title":"USF Maps",
    "description":"Tampa, FL",
    "marker-color":"#d1441e",
    "status":"Official OTP Deployment",
	"url":"https://maps.usf.edu/"
    }
  },
  {
    "type": "Feature",
    "geometry": {
       "type": "Point",
       "coordinates":  [-121.939669,37.400226]
    },
    "properties": {
    "title":"Valley Transit Authority",
    "description":"Santa Clara, CA",
    "marker-color":"#d1441e",
    "status":"Official OTP Deployment",
	"url":"http://www.vta.org/"
    }
  },
  {
    "type": "Feature",
    "geometry": {
       "type": "Point",
       "coordinates":  [-104.998358,39.750880]
    },
    "properties": {
    "title":"Regional Transportation District",
    "description":"Denver, CO",
    "marker-color":"#d1441e",
    "status":"Official OTP Deployment",
	"url":"http://www.rtd-denver.com/"
    }
  },
  {
    "type": "Feature",
    "geometry": {
       "type": "Point",
       "coordinates":  [-104.998358,39.750880]
    },
    "properties": {
    "title":"Cherriots, Salem-Keizer Transit",
    "description":"Salem, OR",
    "marker-color":"#d1441e",
    "status":"Official OTP Deployment",
	"url":"http://cherriots.org/"
    }
  },
  {
    "type": "Feature",
    "geometry": {
       "type": "Point",
       "coordinates":  [103.864176,1.352482]
    },
    "properties": {
    "title":"SMRT",
    "description":"Singapore",
    "marker-color":"#d1441e",
    "status":"Official OTP Deployment",
	"url":"http://journey.smrt.com.sg/"
    }
  },
  {
    "type": "Feature",
    "geometry": {
       "type": "Point",
       "coordinates":  [-122.326299,47.604116]
    },
    "properties": {
    "title":"SoundTransit",
    "description":"Seattle, WA",
    "marker-color":"#d1441e",
    "status":"Official OTP Deployment",
	"url":"http://www.soundtransit.org/tripplanner"
    }
  },
  {
    "type": "Feature",
    "geometry": {
       "type": "Point",
       "coordinates":  [11.343700, 44.495424]
    },
    "properties": {
    "title":"ViviBus Bologna",
    "description":"Bologna, Italy",
    "marker-color":"#084c8d",
    "status":"Unofficial OTP Deployment",
	"url":"http://bologna.vivibus.it/"
    }
  },
  {
    "type": "Feature",
    "geometry": {
       "type": "Point",
       "coordinates":  [103.866578,1.354628]
    },
    "properties": {
    "title":"Singapore Nextride",
    "description":"Singapore",
    "marker-color":"#084c8d",
    "status":"Unofficial OTP Deployment",
	"url":"https://itunes.apple.com/us/app/nextride-singapore-public/id565103559"
    }
  },
  {
    "type": "Feature",
    "geometry": {
       "type": "Point",
       "coordinates":  [-86.802080,33.517993]
    },
    "properties": {
    "title":"BJCTA",
    "description":"Birmingham, Alabama",
    "marker-color":"#084c8d",
    "status":"Unofficial OTP Deployment",
	"url":"https://www.bjcta.org/"
    }
  },
  {
    "type": "Feature",
    "geometry": {
       "type": "Point",
       "coordinates":  [34.778313,32.084256]
    },
    "properties": {
    "title":"TranzMate",
    "description":"Tel Aviv, Israel",
    "marker-color":"#084c8d",
    "status":"Unofficial OTP Deployment",
	"url":"http://www.tranzmate.co.il/"
    }
  },
 {
    "type": "Feature",
    "geometry": {
       "type": "Point",
       "coordinates":  [5.290030,52.140307]
    },
    "properties": {
    "title":"Netherlands (Nationwide)",
    "description":"",
    "marker-color":"#9CF",
    "status":"OTP Prototype, Technical Previews, Demos",
	"url":""
    }
  },
 {
    "type": "Feature",
    "geometry": {
       "type": "Point",
       "coordinates":  [-8.411482,43.362684]
    },
    "properties": {
    "title":"A Coru&#241;a, Spain",
    "description":"",
    "marker-color":"#9CF",
    "status":"OTP Prototype, Technical Previews, Demos",
	"url":""
    }
  },
 {
    "type": "Feature",
    "geometry": {
       "type": "Point",
       "coordinates":  [23.728383,37.983797]
    },
    "properties": {
    "title":"Athens, Greece",
    "description":"",
    "marker-color":"#9CF",
    "status":"OTP Prototype, Technical Previews, Demos",
	"url":""
    }
  },
 {
    "type": "Feature",
    "geometry": {
       "type": "Point",
       "coordinates":  [19.052706,47.495976]
    },
    "properties": {
    "title":"Budapest, Hungary",
    "description":"",
    "marker-color":"#9CF",
    "status":"OTP Prototype, Technical Previews, Demos",
	"url":""
    }
  },
 {
    "type": "Feature",
    "geometry": {
       "type": "Point",
       "coordinates":  [149.128749,-35.281918]
    },
    "properties": {
    "title":"Canberra, Australia",
    "description":"",
    "marker-color":"#9CF",
    "status":"OTP Prototype, Technical Previews, Demos",
	"url":""
    }
  },
 {
    "type": "Feature",
    "geometry": {
       "type": "Point",
       "coordinates":  [24.939331,60.169243]
    },
    "properties": {
    "title":"Helsinki, Finland",
    "description":"",
    "marker-color":"#9CF",
    "status":"OTP Prototype, Technical Previews, Demos",
	"url":""
    }
  },
 {
    "type": "Feature",
    "geometry": {
       "type": "Point",
       "coordinates":  [-0.127593,51.507222]
    },
    "properties": {
    "title":"London, UK",
    "description":"",
    "marker-color":"#9CF",
    "status":"OTP Prototype, Technical Previews, Demos",
	"url":""
    }
  },
 {
    "type": "Feature",
    "geometry": {
       "type": "Point",
       "coordinates":  [5.376985,43.294364]
    },
    "properties": {
    "title":"Marseille Métropole",
    "description":"",
    "marker-color":"#9CF",
    "status":"OTP Prototype, Technical Previews, Demos",
	"url":""
    }
  },
 {
    "type": "Feature",
    "geometry": {
       "type": "Point",
       "coordinates":  [-8.195931,39.442269]
    },
    "properties": {
    "title":"Portugal",
    "description":"",
    "marker-color":"#9CF",
    "status":"OTP Prototype, Technical Previews, Demos",
	"url":""
    }
  },
 {
    "type": "Feature",
    "geometry": {
       "type": "Point",
       "coordinates":  [24.246754,-31.010363]
    },
    "properties": {
    "title":"South Africa",
    "description":"",
    "marker-color":"#9CF",
    "status":"OTP Prototype, Technical Previews, Demos",
	"url":""
    }
  },
 {
    "type": "Feature",
    "geometry": {
       "type": "Point",
       "coordinates":  [-82.444593,27.954962]
    },
    "properties": {
    "title":"Tampa, Florida",
    "description":"",
    "marker-color":"#9CF",
    "status":"OTP Prototype, Technical Previews, Demos",
	"url":""
    }
  }
]
}